,City,Cloudiness,Country,Date,Humidity,Lat,Lng,Max Temp,Wind Speed
0,Saint-Augustin,20,CA,1564372702,83,45.63,-73.98,75.99,2.24
1,Fortuna,0,ES,1564372702,83,38.18,-1.13,73.99,3.36
2,Hobart,75,AU,1564372601,64,-42.88,147.33,48.2,14.99
3,Baracoa,20,CU,1564372702,80,20.35,-74.5,81.23,9.6
4,Pinega,100,RU,1564372702,85,64.7,43.39,45.23,9.57
6,Luderitz,0,NA,1564372702,100,-26.65,15.16,50,14.99
7,College,20,US,1564372703,82,64.86,-147.8,66,6.93
8,Salamiyah,0,SY,1564372703,78,35.01,37.05,67.19,9.04
9,Middelburg,0,NL,1564372703,87,51.5,3.61,63,12.75
10,Mataura,100,NZ,1564372703,91,-46.19,168.86,52,0.89
11,Noyabrsk,58,RU,1564372703,64,63.2,75.45,59.63,14.07
12,New Norfolk,75,AU,1564372436,64,-42.78,147.06,48.2,14.99
13,Ahipara,100,NZ,1564372704,100,-35.17,173.16,63,8.46
14,East London,0,ZA,1564372704,19,-33.02,27.91,75.2,12.75
15,Thompson,90,CA,1564372452,87,55.74,-97.86,53.6,11.41
16,Blagoyevo,100,RU,1564372704,96,63.37,47.92,45.23,12.55
17,Krutinka,41,RU,1564372704,66,56.01,71.51,65.75,10.04
18,Atuona,0,PF,1564372432,77,-9.8,-139.03,80.51,21.81
19,Naze,100,NG,1564372705,96,5.43,7.07,72.05,3.22
20,Bluff,6,AU,1564372705,37,-23.58,149.07,71.51,2.04
22,Hamilton,1,CA,1564372705,83,43.26,-79.87,75.99,2.24
23,Yellowknife,40,CA,1564372705,67,62.45,-114.38,57.2,8.05
24,Valadares,90,BR,1564372706,93,-25.53,-48.5,61,3.36
25,Batemans Bay,100,AU,1564372706,90,-35.71,150.18,55.99,4
26,Vaini,90,IN,1564372412,100,15.34,74.49,73.4,11.41
27,Prabumulih,93,ID,1564372706,60,-3.5,104.19,85.19,4.59
28,Jamestown,89,AU,1564372435,74,-33.21,138.6,55.67,6.24
29,Pevek,100,RU,1564372432,97,69.7,170.27,34.25,18.12
30,Albany,90,US,1564372421,78,42.65,-73.75,75,8.55
31,Saint Anthony,1,US,1564372706,31,43.97,-111.68,77,12.75
32,Qaanaaq,74,GL,1564372707,70,77.48,-69.36,40.01,0.89
33,Joshimath,93,IN,1564372707,79,30.57,79.57,62.51,2.66
34,Rikitea,82,PF,1564372707,83,-23.12,-134.97,70.07,18.97
35,Monrovia,75,LR,1564372433,94,6.33,-10.8,75.2,8.3
36,Weligama,99,LK,1564372707,79,5.97,80.42,81.41,11.72
38,Hasaki,75,JP,1564372470,66,35.73,140.83,97,5.82
39,Ilulissat,25,GL,1564372708,38,69.22,-51.1,59,18.34
40,Talcahuano,90,CL,1564372708,93,-36.72,-73.12,53.6,14.99
41,Torbay,20,CA,1564372582,93,47.66,-52.73,59,12.75
42,Chapais,1,CA,1564372708,93,49.78,-74.86,59,4.7
43,Oga,40,IT,1564372708,100,46.46,10.35,59,1.12
44,Cherskiy,100,RU,1564372709,74,68.75,161.3,44.87,13.13
45,Tiksi,100,RU,1564372709,93,71.64,128.87,36.23,10.74
47,Ushuaia,40,AR,1564372413,59,-54.81,-68.31,37.4,16.11
48,Esperance,75,AU,1564372709,72,-33.86,121.89,59,2.24
49,Port Alfred,0,ZA,1564372709,93,-33.59,26.89,62.01,3
50,Punta Arenas,0,CL,1564372415,74,-53.16,-70.91,35.6,6.93
51,Arraial do Cabo,52,BR,1564372710,88,-22.97,-42.02,68.63,6.51
52,Constitucion,75,MX,1564372710,77,23.99,-104.67,66.99,3.36
53,Sinnamary,49,GF,1564372444,80,5.38,-52.96,80.51,8.23
54,Upernavik,1,GL,1564372710,75,72.79,-56.15,40.73,15.93
55,Narsaq,3,GL,1564372465,53,60.91,-46.05,50,6.93
56,Serdobsk,4,RU,1564372710,88,52.46,44.21,59.09,9.06
57,Georgetown,20,GY,1564372499,94,6.8,-58.16,77,4.7
58,Sakaiminato,75,JP,1564372711,52,35.55,133.23,93.2,5.82
59,Bubaque,100,GW,1564372711,84,11.28,-15.83,77.27,1.34
60,Liverpool,75,GB,1564372711,93,53.41,-2.98,59,6.93
61,Nara,40,JP,1564372711,70,34.68,135.8,97,8.05
62,Nchelenge,62,ZM,1564372711,68,-9.35,28.74,56.21,6.96
63,Mar del Plata,89,AR,1564372428,63,-46.43,-67.52,40.73,12.39
64,Qaqortoq,3,GL,1564372712,53,60.72,-46.03,50,6.93
65,Victoria,75,BN,1564372440,83,5.28,115.24,86,1.12
66,Hermanus,99,ZA,1564372433,97,-34.42,19.24,50,0.94
67,Ballina,100,IE,1564372712,93,54.11,-9.15,57.99,3
68,Puerto Ayora,67,EC,1564372712,96,-0.74,-90.35,68,1.01
69,Vao,0,EE,1564372712,69,59.1,26.19,52.25,6.73
70,Sur,100,OM,1564372496,63,22.57,59.53,83.03,11.32
71,Busselton,0,AU,1564372713,42,-33.64,115.35,63,11.97
72,Teguldet,3,RU,1564372713,56,57.31,88.17,74.03,5.17
73,Hilo,75,US,1564372449,61,19.71,-155.08,82.4,9.17
74,Puerto Madero,90,AR,1564372713,76,-34.61,-58.36,55.4,10.29
75,Portland,40,US,1564372678,94,43.66,-70.25,73.4,2.84
76,Jiehu,77,CN,1564372713,79,35.54,118.45,85.37,7.4
77,Merauke,84,ID,1564372714,80,-8.49,140.4,76.01,17.22
78,Bathsheba,40,BB,1564372714,83,13.22,-59.52,80.6,5.82
79,Honningsvag,75,NO,1564372714,87,70.98,25.97,42.8,17.22
80,Fereydun Kenar,90,IR,1564372714,83,36.69,52.52,75.2,2.24
81,Hami,0,CN,1564372714,16,42.84,93.51,81.23,7.58
82,Pisco,40,PE,1564372715,82,-13.71,-76.2,59,3.36
83,Tuktoyaktuk,40,CA,1564372715,62,69.44,-133.03,55.4,11.41
84,Ewo,25,CG,1564372715,63,-0.88,14.81,75.29,9.42
85,Lodja,4,CD,1564372715,46,-3.52,23.6,68.27,0.89
87,Necochea,0,AR,1564372715,94,-38.55,-58.74,43,8.99
88,Hirado,75,JP,1564372716,94,33.32,129.49,84.2,4.7
89,Charters Towers,60,AU,1564372716,39,-20.07,146.27,74.03,9.48
90,Rundu,0,NA,1564372716,39,-17.91,19.77,48.2,2.24
91,Chokurdakh,100,RU,1564372716,87,70.62,147.9,40.91,9.44
92,Ayan,20,IR,1564372716,68,38.23,44.7,68,2.24
93,Puebloviejo,40,CO,1564372717,58,10.99,-74.28,87.8,4.7
94,Nogliki,100,RU,1564372717,89,51.8,143.14,55.13,10.16
95,Dikson,2,RU,1564372436,84,73.51,80.55,39.65,18.19
97,Severo-Kurilsk,72,RU,1564372717,94,50.68,156.12,48.47,6.46
98,Souillac,0,FR,1564372442,93,45.6,-0.6,55.4,2.24
99,Makushino,96,RU,1564372718,64,55.21,67.25,66.83,10.85
100,Provideniya,90,RU,1564372718,76,64.42,-173.23,53.6,13.42
102,Cayenne,90,GF,1564372718,100,4.94,-52.33,73.4,2.3
103,Atyrau,0,KZ,1564372718,60,47.1,51.92,75.2,13.42
104,Butaritari,100,KI,1564372435,67,3.07,172.79,85.19,7.23
106,Riviere-au-Renard,75,CA,1564372719,88,49,-64.4,68,3.36
107,Kavieng,100,PG,1564372451,91,-2.57,150.8,77.09,11.01
108,Neryungri,0,RU,1564372719,46,56.66,124.71,78.71,3.89
109,Kaitangata,100,NZ,1564372719,83,-46.28,169.85,50,1.99
112,Anju,100,KP,1564372719,87,39.62,125.66,80.69,8.77
113,Shirokiy,91,RU,1564372483,63,53.87,39.17,54,5.01
114,Ostrovnoy,100,RU,1564372720,98,68.05,39.51,41.09,22.75
115,Ucluelet,70,CA,1564372720,89,48.94,-125.55,71.01,1.01
117,Rathkeale,75,IE,1564372720,93,52.52,-8.94,55.4,4.7
118,Ban Nahin,100,LA,1564372720,65,18.24,104.21,86.27,2.48
119,Clyde River,90,CA,1564372429,100,70.47,-68.59,37.4,14.99
120,Cidreira,67,BR,1564372721,83,-30.17,-50.22,57.11,14.47
121,Galesong,20,ID,1564372721,46,-5.32,119.37,89.6,9.17
122,Mount Gambier,75,AU,1564372721,71,-37.83,140.78,55.4,11.41
123,Niquelandia,26,BR,1564372721,58,-14.47,-48.46,65.39,5.66
124,Cairns,40,AU,1564372630,50,-16.92,145.77,79,16.11
125,Lebu,90,ET,1564372721,93,8.96,38.73,57.2,3.36
127,Chernyshevskiy,100,RU,1564372704,50,63.01,112.47,67.73,8.03
128,Saint-Philippe,75,CA,1564372722,88,45.36,-73.48,75.99,4.7
129,Kutum,97,SD,1564372434,71,14.2,24.66,73.31,22.59
130,Pierre,1,US,1564372532,60,44.37,-100.35,72,8.05
131,San Quintin,96,PH,1564372722,68,17.54,120.52,85.01,8.01
132,Port Hardy,40,CA,1564372722,72,50.7,-127.42,60.8,9.17
133,Ponta do Sol,0,BR,1564372723,53,-20.63,-46,58.01,4.94
134,Leh,81,IN,1564372723,67,34.16,77.58,47.93,2.21
135,Muros,75,ES,1564372723,100,42.77,-9.06,64.99,6.93
136,Nikolskoye,20,RU,1564372723,62,59.7,30.79,59,2.24
137,Khatanga,80,RU,1564372723,40,71.98,102.47,62.15,16.78
138,Cape Town,75,ZA,1564372723,93,-33.93,18.42,55,16.11
139,Tasiilaq,100,GL,1564372724,81,65.61,-37.64,44.6,18.34
140,Islamkot,94,PK,1564372724,77,24.7,70.18,84.11,15.73
141,Kodinsk,100,RU,1564372724,37,58.6,99.18,73.67,2.86
142,Nkhotakota,33,MW,1564372724,85,-12.93,34.3,53.69,4.09
143,Rabat,75,MA,1564372724,68,34.02,-6.83,70,5.08
144,Pedasi,83,PA,1564372725,91,7.53,-80.03,75.11,2.06
146,Tanout,97,NE,1564372725,47,14.97,8.88,87.89,12.1
147,Ambilobe,3,MG,1564372725,89,-13.19,49.05,68.81,3.38
148,Kapaa,40,US,1564372431,70,22.08,-159.32,84.2,14.99
149,Kruisfontein,91,ZA,1564372725,47,-34,24.73,58.37,4.72
150,Celestun,9,MX,1564372726,83,20.87,-90.4,78.89,27.22
151,Ribeira Grande,100,PT,1564372445,84,38.52,-28.7,69.17,16.42
153,Hithadhoo,5,MV,1564372726,71,-0.6,73.08,83.03,7.11
154,Tuatapere,100,NZ,1564372712,91,-46.13,167.69,52,2.42
155,Gwanda,0,ZW,1564372726,62,-20.94,29,47.39,3.76
156,Siderno,20,IT,1564372726,69,38.28,16.3,78.8,6.93
157,Kintampo,37,GH,1564372727,96,8.05,-1.73,70.79,7.7
158,Port Elizabeth,1,US,1564372727,74,39.31,-74.98,80.6,8.05
159,Anshun,100,CN,1564372652,92,26.25,105.93,69.17,6.04
160,Hofn,100,IS,1564372726,83,64.25,-15.21,48.47,7.34
161,Castro,90,CL,1564372727,93,-42.48,-73.76,50,12.75
162,Salug,100,PH,1564372727,88,8.11,122.76,77.63,7.49
163,Manaia,28,BR,1564372728,74,-5.02,-39.08,73.49,2.89
164,Mount Isa,51,AU,1564372728,24,-20.73,139.49,80.6,6.93
165,Asyut,0,EG,1564372452,40,27.18,31.19,75.47,5.21
166,Sitka,32,US,1564372474,62,37.17,-99.65,78.01,8.39
167,Half Moon Bay,5,US,1564372728,60,37.46,-122.43,70,9.66
170,Nemuro,75,JP,1564372728,58,43.32,145.57,84.2,10.29
171,Costa Rica,75,MX,1564372729,55,24.59,-107.39,89.6,5.82
172,Azle,40,US,1564372729,58,32.9,-97.55,88,17.22
173,Palmer,20,AU,1564372729,62,-34.85,139.16,61,13.87
174,Leningradskiy,100,RU,1564372729,68,69.38,178.42,49.91,21.34
175,Rio Branco,0,BR,1564372729,100,-9.98,-67.82,66.2,2.19
176,Tripoli,20,GR,1564372730,77,37.51,22.37,75.99,2.44
177,Seoul,75,KR,1564372204,79,37.57,126.98,87.8,3.36
178,Sembakung,100,ID,1564372730,64,3.82,117.25,87.35,0.98
179,Talnakh,40,RU,1564372730,72,69.49,88.39,59,11.18
181,Vardo,40,US,1564372715,94,39.62,-77.74,78.8,3.09
182,Beoumi,75,CI,1564372730,100,7.67,-5.58,73.4,11.41
183,Valkeakoski,0,FI,1564372731,76,61.26,24.03,59,3.36
184,Dodge City,75,US,1564372634,45,37.75,-100.02,84.2,5.82
185,Haverfordwest,88,GB,1564372731,87,51.8,-4.97,60.01,5.82
186,Broome,54,GB,1564372731,100,52.47,1.45,57,8.05
188,Colac,44,AU,1564372731,84,-38.34,143.59,57,1.99
189,Yamada,75,JP,1564372732,63,36.58,137.08,91.4,4.7
190,Arlit,97,NE,1564372732,50,18.74,7.39,85.01,13.51
191,Marrakesh,0,MA,1564372732,68,31.63,-7.99,68,3.36
192,Barrow,4,AR,1564372732,75,-38.31,-60.23,50.09,13.98
193,State College,40,US,1564372520,73,40.79,-77.86,73.4,3.83
194,Manado,20,ID,1564372732,49,1.49,124.85,89.6,4.7
195,Airai,0,TL,1564372733,50,-8.93,125.41,82.13,4.52
197,Flinders,0,AU,1564372733,39,-34.58,150.85,70,10.29
199,San Patricio,0,PY,1564372439,84,-26.98,-56.83,52.07,4.97
200,Slyudyanka,100,RU,1564372733,97,51.66,103.72,50.99,11.3
201,Bambous Virieux,75,MU,1564372733,100,-20.34,57.76,73,5.82
202,Jinchang,0,CN,1564372734,23,38.52,102.19,75.29,15.61
203,Los Llanos de Aridane,0,ES,1564372734,68,28.66,-17.92,71.6,11.41
205,Sao Joao da Barra,0,BR,1564372734,94,-21.64,-41.05,61.79,0.85
206,Cabo San Lucas,5,MX,1564372529,48,22.89,-109.91,91.4,14.99
207,Katsuura,75,JP,1564372734,79,33.93,134.5,89.6,5.82
208,Ghanzi,0,BW,1564372735,39,-21.7,21.65,48.83,3.09
209,Port-Gentil,43,GA,1564372735,81,-0.72,8.78,74.93,12.62
210,Bethel,90,US,1564372735,49,60.79,-161.76,68,9.17
211,Paamiut,0,GL,1564372735,92,61.99,-49.67,39.11,2.98
212,Koshurnikovo,100,RU,1564372735,54,54.3,93.39,69.71,1.45
213,Kodiak,75,US,1564372736,88,39.95,-94.76,78.01,11.41
214,Salalah,90,OM,1564372455,94,17.01,54.1,77,6.93
215,Rafai,71,CF,1564372736,98,4.95,23.92,66.47,1.19
216,Abu Zabad,100,SD,1564372736,80,12.35,29.25,75.29,7.45
218,Honiara,75,SB,1564372736,66,-9.43,159.96,87.8,9.17
219,Evensk,5,RU,1564372737,54,61.92,159.24,66.83,9.17
220,Hobyo,77,SO,1564372737,74,5.35,48.53,75.65,14.12
221,Hay River,75,CA,1564372737,63,60.82,-115.79,62.6,5.82
222,Bridlington,90,GB,1564372737,100,54.08,-0.19,63,13.87
223,Sorong,31,ID,1564372737,69,-0.86,131.25,83.57,9.35
224,Richards Bay,0,ZA,1564372738,80,-28.77,32.06,63.95,15.57
225,Conceicao do Araguaia,0,BR,1564372738,53,-8.26,-49.26,72.23,1.99
226,Boddam,90,GB,1564372738,100,57.47,-1.78,61,3.36
227,Faanui,100,PF,1564372738,78,-16.48,-151.75,78.71,24.05
228,Carnarvon,1,ZA,1564372738,38,-30.97,22.13,51.89,12.28
229,Chuy,100,UY,1564372738,84,-33.69,-53.46,53.33,10.38
230,Vanimo,90,PG,1564372474,77,-2.67,141.3,79.97,5.17
231,Bayangol,100,MN,1564372739,96,48.91,106.09,52.07,6.6
232,Maragogi,3,BR,1564372739,95,-9.01,-35.22,67.37,2.82
233,Sosnovo,21,RU,1564372739,72,60.56,30.25,55,3.62
234,Ancud,90,CL,1564372739,93,-41.87,-73.83,50,12.75
235,Taoudenni,15,ML,1564372740,10,22.68,-3.98,97.43,7.74
236,Avarua,97,CK,1564372740,88,-21.21,-159.78,75.2,16.11
237,Norsup,40,VU,1564372740,65,-16.07,167.38,80.6,9.17
238,Puquio,0,PE,1564372740,57,-14.69,-74.12,42.53,8.01
239,Usinsk,100,RU,1564372740,88,66,57.56,44.69,25.77
240,Duluth,90,US,1564372500,100,46.77,-92.13,66,11.41
241,Marihatag,100,PH,1564372741,99,8.8,126.3,71.51,1.36
242,Kenora,100,CA,1564372741,88,49.76,-94.48,64.4,10.29
243,Lorengau,100,PG,1564372741,94,-2.02,147.27,75.65,4.9
244,Margate,75,AU,1564372741,64,-43.03,147.26,48.2,14.99
245,Norman Wells,75,CA,1564372741,68,65.28,-126.83,64.4,2.24
247,Gangakher,90,IN,1564372742,94,18.95,76.75,75.2,8.05
248,Opuwo,0,NA,1564372742,57,-18.06,13.84,45.77,2.13
249,Touros,20,BR,1564372742,94,-5.2,-35.46,71.6,4.7
250,Port Hedland,0,AU,1564372742,39,-20.31,118.58,82.4,12.75
251,Svetlogorsk,75,RU,1564372742,68,53.14,59.15,64.4,15.66
252,Riyadh,0,SA,1564372743,26,24.63,46.72,84.2,3.36
253,Ponta Delgada,20,PT,1564372743,72,37.73,-25.67,68,6.93
254,Gawler,20,AU,1564372743,62,-34.6,138.75,61,13.87
255,Vanavara,97,RU,1564372743,38,60.35,102.28,72.41,5.21
256,Belmonte,0,PT,1564372743,91,40.36,-7.35,60.01,1.01
258,Zhigansk,0,RU,1564372744,47,66.77,123.37,57.65,17.92
259,Kahului,40,US,1564372744,74,20.89,-156.47,82.99,16.11
260,Senanga,0,ZM,1564372744,41,-16.1,23.3,49.73,5.48
261,Neiafu,20,TO,1564372744,78,-18.65,-173.98,78.8,8.05
262,Alofi,100,NU,1564372480,83,-19.06,-169.92,78.8,10.29
263,Husavik,21,CA,1564372744,61,50.56,-96.99,66,5.99
264,Rantepao,78,ID,1564372653,57,-2.97,119.9,73.85,4.68
265,Nouadhibou,0,MR,1564372623,78,20.93,-17.03,71.6,19.46
266,Linxia,3,CN,1564372745,58,35.6,103.21,68.45,5.59
267,Iralaya,99,HN,1564372464,92,15,-83.23,77.27,3.11
268,Iqaluit,20,CA,1564372745,87,63.75,-68.52,44.6,4.7
269,Coquimbo,75,CL,1564372745,100,-29.95,-71.34,48.2,4.7
270,La Ronge,5,CA,1564372745,50,55.1,-105.3,57.2,3.36
271,Dayong,40,CN,1564372746,59,25.02,118.29,91.4,6.71
272,Adrar,0,DZ,1564372746,9,27.87,-0.29,89.6,10.29
274,Sinegorye,90,RU,1564372746,61,62.09,150.53,63.95,6.49
276,Pangkalanbuun,41,ID,1564372746,56,-2.68,111.62,85.73,4.81
277,Sao Jose da Coroa Grande,3,BR,1564372747,95,-8.9,-35.15,67.37,2.82
279,Sao Bento do Sul,100,BR,1564372747,97,-26.25,-49.38,59,7
280,Yuzhnyy,99,RU,1564372747,93,53.54,39.45,58.19,9.73
281,Lubango,34,AO,1564372526,93,-14.92,13.49,54.95,0.81
282,Imperia,0,IT,1564372747,68,43.88,8.02,71.6,8.05
284,Coihaique,90,CL,1564372492,93,-45.58,-72.07,35.6,3.33
285,Kavaratti,40,IN,1564372748,83,10.57,72.64,82.4,6.93
286,Tignere,100,CM,1564372748,93,7.37,12.65,66.65,0.89
287,Saskylakh,100,RU,1564372748,69,71.97,114.09,47.39,9.4
289,Alice Springs,0,AU,1564372748,13,-23.7,133.88,80.6,6.93
290,Xingtai,50,CN,1564372749,75,37.07,114.49,84.65,6.55
291,Simplicio Mendes,16,BR,1564372749,61,-7.85,-41.91,74.39,10.16
292,Kisangani,81,CD,1564372749,90,0.52,25.21,69.71,0.67
293,Gazanjyk,0,TM,1564372749,33,39.24,55.52,81.77,8.88
294,Pandan,100,PH,1564372749,78,11.72,122.09,81.77,16.78
295,Lavrentiya,100,RU,1564372750,64,65.58,-170.99,50.09,14.74
296,Kelso,100,GB,1564372750,93,55.6,-2.43,62.6,3.36
297,Nouakchott,40,MR,1564372750,83,18.08,-15.98,75.2,8.05
298,Plettenberg Bay,71,ZA,1564372750,70,-34.05,23.37,56.93,1.25
299,Cachoeira do Sul,18,BR,1564372750,97,-30.05,-52.89,48.29,5.5
300,Aquidauana,2,BR,1564372750,53,-20.47,-55.78,66.83,3.76
301,Uyuni,0,BO,1564372751,16,-20.46,-66.82,31.91,9.48
302,Bredasdorp,100,ZA,1564372751,93,-34.53,20.04,53.6,3.56
303,Mackay,75,CA,1564372751,63,53.65,-115.58,66.2,4.7
304,Los Arcos,75,MX,1564372751,72,18.89,-99.02,60.8,5.82
305,Chara,0,GR,1564372751,64,39.42,22.43,75,4.7
306,Akdepe,0,TM,1564372752,57,42.05,59.39,77,4.7
307,Salta,0,AR,1564372752,81,-24.79,-65.41,44.6,4.7
308,Saldanha,0,PT,1564372752,53,41.42,-6.55,57.83,3.33
309,Port Augusta,90,AU,1564372752,77,-32.49,137.76,63,13.87
310,Manggar,88,ID,1564372470,59,-2.88,108.27,85.91,8.59
311,Sinnar,100,IN,1564372668,85,19.85,74,73.85,16.22
312,Krasnoborsk,100,RU,1564372753,96,61.56,45.93,43.07,14.94
313,Dalbandin,46,PK,1564372753,58,28.9,64.41,83.39,2.21
314,Benjamin Constant,0,BR,1564372753,100,-4.38,-70.03,71.6,1.25
315,Rawson,63,AR,1564372753,62,-43.3,-65.11,45.95,13.6
316,Xinye,68,CN,1564372753,64,32.53,112.36,93.11,6.89
317,Khash,20,IR,1564372753,36,28.22,61.21,75.47,2.42
318,Huancavelica,100,PE,1564372754,93,-12.79,-74.97,32.63,2.51
320,Walvis Bay,35,NA,1564372754,93,-22.95,14.51,55,8.63
321,Koulikoro,20,ML,1564372754,88,12.86,-7.56,75.2,4.7
323,Shimoda,40,JP,1564372754,83,34.7,138.93,91,17.22
324,Northam,40,AU,1564372732,71,-31.65,116.67,57.2,13.87
325,Saint-Francois,0,FR,1564372755,93,46.42,3.91,50,2.98
327,Llata,0,PE,1564372755,93,-9.55,-76.82,35.33,1.41
328,Ixtapa,75,MX,1564372755,55,20.71,-105.21,86,2.24
329,San Cristobal,100,HN,1564372755,88,14.68,-86.92,66.29,3.76
330,Tabuk,67,PH,1564372756,70,17.41,121.44,79.07,1.43
331,Nanortalik,25,GL,1564372745,86,60.14,-45.24,39.65,6.91
332,Tevaitoa,51,PF,1564372756,80,-16.78,-151.5,77.99,22.93
333,Acajutla,67,SV,1564372518,72,13.59,-89.83,84.47,6.82
334,Natal,20,BR,1564372756,88,-5.81,-35.21,71.6,6.93
335,Sept-Iles,75,CA,1564372623,93,50.2,-66.38,63,8.05
336,Guayaramerin,0,BO,1564372756,62,-10.82,-65.36,70.61,1.68
337,Sobolevo,16,RU,1564372757,98,54.43,31.9,59.99,7.76
338,Umm Lajj,0,SA,1564372757,69,25.02,37.27,82.67,11.43
339,Tahe,100,CN,1564372757,69,52.34,124.71,72.05,2.51
341,Grindavik,75,IS,1564372757,93,63.84,-22.43,55.4,9.17
342,Faya,0,SA,1564372757,55,18.39,42.45,66.2,3.56
343,Sackville,40,CA,1564372758,82,45.9,-64.37,66.2,11.41
344,Kieta,1,PG,1564372758,76,-6.22,155.63,81.95,4.5
345,Tilichiki,100,RU,1564372758,84,60.47,166.1,56.21,7.56
346,San Policarpo,100,PH,1564372758,76,12.18,125.51,82.49,7.38
347,Gisborne,100,NZ,1564372758,79,-38.66,178.02,57.99,1.99
348,Fuxin,100,CN,1564372759,52,42.02,121.65,92.57,12.84
349,Meulaboh,3,ID,1564372759,74,4.14,96.13,80.15,5.37
350,Salgueiro,0,BR,1564372759,79,-8.07,-39.12,68.99,14.72
351,Hovd,0,NO,1564372759,64,63.83,10.7,77,13.87
352,Muncar,61,ID,1564372759,62,-8.43,114.34,80.51,5.64
353,Princeton,75,US,1564372685,54,40.35,-74.66,82.4,13.87
356,Longyearbyen,0,NO,1564372760,71,78.22,15.63,50,3.36
357,Darnah,0,LY,1564372760,71,32.77,22.64,79.25,4.47
358,Kalmunai,99,LK,1564372760,53,7.42,81.82,85.91,1.48
359,Bonthe,85,SL,1564372760,87,7.53,-12.5,76.01,8.5
360,Umm Kaddadah,27,SD,1564372479,54,13.6,26.69,83.03,17.02
361,Watertown,1,US,1564372612,94,44.9,-97.12,70,3.36
362,Eyl,6,SO,1564372761,68,7.98,49.82,74.75,27.38
363,Henties Bay,99,NA,1564372489,93,-22.12,14.28,55,7.9
364,Lesnoy,100,RU,1564372761,98,59.78,52.13,46.13,6.89
365,Dauphin,90,CA,1564372761,68,51.15,-100.04,66.2,13.87
366,Morondava,0,MG,1564372761,70,-20.3,44.28,70.97,5.44
368,Geraldton,75,CA,1564372734,72,49.72,-86.95,68,5.82
369,Dunedin,100,NZ,1564372650,81,-45.87,170.5,51.01,8.01
370,Yar-Sale,100,RU,1564372762,60,66.83,70.83,51.35,14.14
371,Shaoguan,1,CN,1564372762,64,24.81,113.59,87.35,4.61
373,Namibe,49,AO,1564372762,82,-15.19,12.15,64.49,13.58
374,Nizwa,69,OM,1564372763,62,22.93,57.53,79.25,0.94
376,Butajira,98,ET,1564372763,97,8.12,38.38,52.07,3.15
377,Tera,75,CY,1564372763,73,34.97,32.42,73.4,6.93
378,Vila Franca do Campo,20,PT,1564372763,72,37.72,-25.43,68,6.93
379,Sarkand,0,KZ,1564372763,13,45.41,79.91,90.59,4.65
380,Khon Buri,40,TH,1564372764,58,14.52,102.25,91,8.05
381,Novopokrovka,0,UA,1564372764,72,49.84,36.56,68,4.47
382,Ushtobe,5,KZ,1564372764,16,45.25,77.98,85.73,1.23
383,Berlevag,75,NO,1564372764,81,70.86,29.09,42.8,14.99
384,Red Bank,64,US,1564372764,100,35.12,-85.29,73.99,0.4
385,Gravdal,68,NO,1564372765,88,59.79,5.78,66,6.93
386,Concordia,100,AR,1564372765,94,-31.4,-58.02,52,1.01
388,Sao Filipe,19,CV,1564372765,83,14.9,-24.5,74.93,6.42
389,Fukuma,75,JP,1564372765,66,33.77,130.47,90,16.11
391,Antofagasta,75,CL,1564372766,81,-23.65,-70.4,53.6,13.87
392,Tsaratanana,10,MG,1564372766,85,-16.8,47.65,59.63,9.51
393,Sinjar,0,SY,1564372766,62,35.59,37,68.27,7.7
394,Chimore,0,BO,1564372766,75,-16.98,-65.13,61.97,3.69
395,Auriflama,0,BR,1564372766,45,-20.68,-50.56,66.29,3.56
397,Soe,60,EE,1564372767,76,57.91,26.05,54,8.05
398,Coahuayana,75,MX,1564372767,82,18.62,-100.35,73.85,1.5
399,Luxeuil-les-Bains,0,FR,1564372767,93,47.82,6.38,57.2,3.36
400,Makakilo City,20,US,1564372767,58,21.35,-158.09,87.8,14.99
401,Dedougou,98,BF,1564372767,78,12.47,-3.47,73.67,4.12
402,Causapscal,0,CA,1564372768,88,48.35,-67.23,66.99,5.26
403,Petropavlovka,11,RU,1564372768,83,50.61,105.32,52.07,14.83
404,Aksu,0,KZ,1564372768,41,52.04,76.93,78.8,17.9
405,Avera,1,US,1564372768,83,33.19,-82.53,77,2.98
406,Udachnyy,75,RU,1564372768,62,66.42,112.4,53.6,4.47
408,North Bend,75,US,1564372769,87,43.41,-124.22,64,11.41
409,Shingu,40,JP,1564372497,83,33.72,135.99,84.2,6.93
410,Kastamonu,0,TR,1564372769,86,41.38,33.78,54.41,2.06
411,Saint George,0,GR,1564372769,64,39.45,22.34,75,4.7
412,Bilibino,100,RU,1564372769,95,68.06,166.44,36.77,2.57
413,Mersing,100,MY,1564372770,64,2.43,103.84,85.55,4.83
414,Lingao,18,CN,1564372770,74,19.91,109.69,84.65,3.38
415,Krasnoslobodsk,24,RU,1564372770,82,54.42,43.79,48.65,11.05
416,Shimizu,75,JP,1564372735,63,35.71,139.62,95,5.82
417,Burns Lake,96,CA,1564372770,55,54.23,-125.76,58.91,6.76
418,Huarmey,98,PE,1564372770,89,-10.07,-78.15,60.17,18.52
419,Mahebourg,75,MU,1564372771,100,-20.41,57.7,73,5.82
420,Grinnell,75,US,1564372771,88,41.74,-92.72,75,10.29
421,Ontario,100,US,1564372543,53,34.07,-117.65,82.99,8.05
422,Fairbanks,20,US,1564372771,82,64.84,-147.72,64.4,6.93
423,Codrington,40,AU,1564372771,52,-28.95,153.24,72,2.24
424,Waddan,0,LY,1564372771,21,29.16,16.14,81.59,6.49
425,Balkhash,0,KZ,1564372772,34,46.84,74.98,78.8,11.18
427,Garoua,94,CM,1564372772,92,9.31,13.39,72.95,3.38
429,Klaksvik,93,FO,1564372772,82,62.23,-6.59,59,1.12
430,Zagan,0,PL,1564372772,69,51.62,15.31,73.4,3.36
431,Lalsot,0,IN,1564372773,66,26.56,76.33,86.27,10.36
432,Abu Dhabi,0,AE,1564372569,41,24.47,54.37,96.8,19.46
433,Prescott,1,US,1564372590,17,34.54,-112.47,87.01,8.05
434,Saquena,0,PE,1564372773,75,-4.67,-73.52,71.51,0.69
435,Atasu,99,KZ,1564372773,22,48.68,71.64,79.25,21.41
436,Dingle,98,PH,1564372773,88,11,122.67,78.53,5.28
437,Aklavik,40,CA,1564372774,34,68.22,-135.01,68,12.75
439,Puerto Lempira,95,HN,1564372774,79,15.27,-83.77,82.85,12.84
440,Darovskoy,100,RU,1564372774,95,58.77,47.96,44.33,14.81
441,Sterling,20,US,1564372774,69,39,-77.4,81,3.36
442,Banposh,44,IN,1564372774,73,22.25,84.8,83.57,7.67
443,Hirara,40,JP,1564372775,70,24.8,125.28,89.6,10.29
444,Kargala,100,RU,1564372775,61,56.62,83.96,78.01,8.99
446,Tsiroanomandidy,0,MG,1564372775,84,-18.77,46.05,57.83,1.83
447,Aguimes,75,ES,1564372775,64,27.91,-15.45,73.4,20.8
448,Ballarat,68,AU,1564372623,65,-37.56,143.86,53.01,1.99
449,Saint-Joseph,0,FR,1564372775,68,43.56,6.97,71.6,4.7
450,Acapulco,75,MX,1564372496,70,16.86,-99.88,86,5.82
451,Prado,85,CO,1564372776,55,3.75,-74.93,76.91,6.76
452,Baft,21,IR,1564372776,36,29.23,56.61,65.21,2.06
454,Lagoa,0,PT,1564372776,37,37.14,-8.45,71.6,11.83
455,Bata,40,GQ,1564372776,88,1.87,9.77,77,14
456,Salinopolis,0,BR,1564372777,80,-0.61,-47.36,81.23,12.73
457,Sao Paulo de Olivenca,0,BR,1564372777,74,-3.38,-68.87,72.41,1.32
458,Grimshaw,75,CA,1564372777,87,56.19,-117.61,61,5.82
459,Nioro,100,GM,1564372777,87,13.79,-15.05,76.91,7.4
460,Fort Nelson,75,CA,1564372777,59,58.81,-122.69,66.2,4.7
463,Tagusao,100,PH,1564372778,69,9.19,117.81,84.65,14
464,Komsomolskiy,100,RU,1564372778,60,67.55,63.78,48.65,17.43
465,Harper,1,US,1564372778,58,30.3,-99.24,82.99,10.29
466,Porto Novo,40,BR,1564372756,93,-23.68,-45.44,59,5.82
467,Manokwari,49,ID,1564372778,72,-0.87,134.08,79.61,4.16
468,Gondanglegi,39,ID,1564372779,52,-7.75,112.01,81.95,7.94
469,Kayerkan,40,RU,1564372779,72,69.35,87.76,59,11.18
470,Valley City,1,US,1564372779,68,46.92,-98,66.2,10.29
471,Matagami,97,NG,1564372779,98,9.67,8.4,68.45,1.21
472,Farafangana,49,MG,1564372779,96,-22.82,47.83,61.43,2.57
473,Lata,1,IN,1564372780,76,30.78,78.62,52.07,4.36
475,Zile,0,TR,1564372780,76,40.3,35.89,55.4,1.21
476,Doha,99,QA,1564372586,79,25.29,51.53,93.2,9.17
477,Lamar,1,US,1564372780,49,38.09,-102.62,73.4,6.93
478,Cabedelo,0,BR,1564372780,100,-6.97,-34.84,69.8,2.24
479,Derzhavinsk,61,KZ,1564372780,49,51.1,66.31,74.75,13.49
480,Padang,0,ID,1564372781,72,-0.92,100.36,82.31,8.3
481,Paracuru,75,BR,1564372781,74,-3.41,-39.03,86,12.75
482,Vilyuysk,65,RU,1564372781,47,63.75,121.63,65.57,10.47
483,Fort Madison,1,US,1564372781,83,40.63,-91.32,79,5.82
484,Port Lincoln,47,AU,1564372782,65,-34.72,135.86,57.29,9.19
485,Kaka,0,TM,1564372782,41,37.35,59.62,87.71,11.86
486,Sotouboua,100,TG,1564372782,96,8.56,0.98,71.33,3.06
487,Tocopilla,25,CL,1564372782,85,-22.09,-70.2,57.11,15.35
488,Pyshchug,100,RU,1564372782,71,58.89,45.71,45.95,15.08
489,Itacare,20,BR,1564372782,83,-14.28,-39,69.8,8.05
490,Mtimbira,12,TZ,1564372783,62,-8.78,36.35,63.41,3.78
491,Ano Mera,0,GR,1564372783,73,37.45,25.4,78.01,5.82
493,Verkhniy Lomov,31,RU,1564372783,88,53.47,43.56,54.77,10.98
494,Hambantota,40,LK,1564372783,83,6.12,81.12,84.2,16.11
495,Zyryanka,100,RU,1564372784,42,65.73,150.89,56.03,1.9
496,Pascagoula,1,US,1564372784,88,30.37,-88.56,81,2.35
497,Jiexiu,54,CN,1564372784,66,37.02,111.92,80.33,12.46
498,Mama,90,MX,1564372784,307,20.48,-89.36,75.99,8.05
500,Rio Gallegos,90,AR,1564372784,93,-51.62,-69.22,39.2,5.82
501,Venice,20,US,1564372619,74,27.1,-82.45,82.4,8.05
502,Puerto Escondido,90,MX,1564372783,78,15.86,-97.07,78.8,13.87
503,Alekseyevsk,96,RU,1564372785,43,57.84,108.35,80.69,12.1
504,Canala,75,NC,1564372785,56,-21.52,165.96,71.6,11.41
505,Darhan,100,MN,1564372748,93,49.49,105.92,51.89,4.61
506,Hokitika,100,NZ,1564372785,72,-42.72,170.96,56.21,4.63
507,Yulara,40,AU,1564372785,24,-25.24,130.99,71.6,13.87
508,Nenjiang,29,CN,1564372786,80,49.17,125.23,73.49,5.57
509,Kaeo,100,NZ,1564372786,100,-35.1,173.78,63,6.62
510,Mae Sai,20,MM,1564372786,66,20.44,99.89,87.01,5.82
511,Solnechnyy,100,RU,1564372786,87,50.72,136.64,71.15,3.89
512,Miquelon,0,PM,1564372786,85,47.1,-56.38,58.73,12.55
513,Calatayud,0,ES,1564372786,63,41.35,-1.64,64.4,4.7
514,Mangrol,75,IN,1564372787,88,25.33,76.51,80.6,3.94
515,Abha,0,SA,1564372787,55,18.22,42.5,66.2,1.41
516,Truth or Consequences,1,US,1564372787,22,33.13,-107.25,89.6,6.93
517,Knysna,90,ZA,1564372787,93,-34.04,23.05,50,3.36
518,Aqtobe,0,KZ,1564372663,77,50.28,57.21,68,11.18
519,Hailar,0,CN,1564372624,45,49.2,119.7,80.33,12.5
520,Igrim,100,RU,1564372788,93,63.19,64.42,53.69,10.6
521,Dumas,90,IN,1564372788,83,21.09,72.71,82.4,6.93
522,Beohari,3,IN,1564372788,72,24.05,81.38,85.01,8.77
523,Mirnyy,0,RU,1564372788,79,56.57,36.46,45.23,6.98
524,Nabire,47,ID,1564372788,61,-3.36,135.5,84.11,3.15
525,Agirish,100,RU,1564372789,96,61.92,63.02,58.19,9.15
526,San Lorenzo,26,HN,1564372789,54,13.43,-87.45,79.79,3.29
527,Escarcega,65,MX,1564372789,94,18.61,-90.75,76.01,6.04
528,Nea Vissa,0,GR,1564372789,88,41.58,26.53,60.01,2.57
529,Inuvik,40,CA,1564372789,34,68.36,-133.71,68,12.75
530,Camacha,40,PT,1564372790,83,33.08,-16.33,73.4,11.41
531,Cockburn Town,0,TC,1564372790,76,21.46,-71.14,82.67,14.07
532,Paka,100,CF,1564372790,98,4.15,15.03,68.27,2.89
533,Roald,0,NO,1564372790,87,62.58,6.12,68,2.24
535,Mayumba,100,GA,1564372790,87,-3.44,10.65,69.89,2.19
536,Yanai,75,JP,1564372791,74,33.97,132.12,86,5.82
538,Varghis,40,RO,1564372791,75,46.13,25.53,64,3
539,Taltal,0,CL,1564372752,72,-25.41,-70.49,49.01,5.61
540,Kjollefjord,75,NO,1564372791,87,70.95,27.35,42.8,17.22
541,Tibati,100,CM,1564372791,98,6.47,12.63,63.41,0.96
542,Mikhaylovka,100,RU,1564372792,86,52.96,103.29,58.19,19.48
543,Tura,99,RU,1564372746,46,64.27,100.22,67.55,6.4
544,Mehran,0,IR,1564372792,29,33.12,46.17,66.2,4.7
545,Mitu,0,IR,1564372792,33,36.2,46.09,64.13,2.01
547,Isla Vista,75,US,1564372512,93,34.41,-119.86,78.01,8.05
548,Pahalgam,98,IN,1564372792,82,34.03,75.33,65.93,3.58
549,Skovorodino,93,RU,1564372793,59,53.99,123.94,75.65,1.45
550,Nelson Bay,0,AU,1564372793,32,-32.72,152.14,70,12.75
551,Ewa Beach,40,US,1564372793,45,21.32,-158.01,87.8,16.11
552,Thunder Bay,90,CA,1564372793,82,48.41,-89.26,68,5.82
553,Eureka,75,US,1564372724,87,40.8,-124.16,60.01,6.93
554,Gisors,0,FR,1564372793,87,49.28,1.78,57.99,3.18
556,Rio Grande,100,BR,1564372794,96,-32.03,-52.1,53.01,6.22
557,Guaymas,88,MX,1564372794,60,27.92,-110.9,91.99,7
558,Mezen,100,RU,1564372794,94,65.85,44.24,43.43,15.88
559,Ljubinje,90,BA,1564372794,100,42.95,18.09,68,3.36
560,Benguela,37,AO,1564372794,87,-12.58,13.4,67.91,16.02
561,Vermillion,90,US,1564372605,93,42.78,-96.93,71.6,4.7
562,Pacific Grove,1,US,1564372523,82,36.62,-121.92,66,6.93
563,San Ramon,28,NI,1564372795,96,12.92,-85.84,66.83,5.41
564,Samarai,31,PG,1564372795,68,-10.62,150.67,77.81,8.41
565,Tamiahua,95,MX,1564372795,79,21.28,-97.45,82.85,7.25
566,Katobu,50,ID,1564372795,54,-4.94,122.53,84.11,6.4
567,Maceio,40,BR,1564372796,88,-9.67,-35.74,69.8,3.36
568,Te Anau,100,NZ,1564372796,96,-45.41,167.72,46.49,4.27
569,Salvador,75,BR,1564372796,73,-12.98,-38.48,75.2,8.05
570,Sao Felix do Xingu,29,BR,1564372770,57,-6.64,-51.99,72.05,2.19
571,Guane,80,CU,1564372796,80,22.2,-84.09,84.65,15.08
572,Beauvais,0,FR,1564372797,93,49.44,2.09,57.99,2.55
573,Alghero,0,IT,1564372752,56,40.56,8.32,73.4,5.82
574,Thinadhoo,38,MV,1564372797,71,0.53,72.93,83.03,5.61
576,Rocha,54,UY,1564372797,95,-34.48,-54.34,44.15,7.49
577,Arkhipo-Osipovka,0,RU,1564372797,95,44.37,38.53,63.95,1.1
578,Atar,8,MR,1564372727,41,20.52,-13.05,85.91,10.11
579,Chumikan,0,RU,1564372798,47,54.72,135.31,75.29,4.65
580,Axim,100,GH,1564372798,87,4.87,-2.24,76.01,10.11
581,Jand,3,PK,1564372798,51,33.43,72.02,90.23,3.74
583,Capreol,20,CA,1564372798,77,46.71,-80.92,68,8.05
584,Bongandanga,14,CD,1564372798,95,1.51,21.07,69.89,1.74
585,Kudahuvadhoo,100,MV,1564372799,65,2.67,72.89,81.95,2.51
586,Parkes,100,AU,1564372799,48,-33.14,148.18,64,4.03
589,Banda Aceh,4,ID,1564372572,75,5.56,95.32,81.95,18.05
590,Khor,100,RU,1564372799,87,47.88,134.96,80.69,8.41
591,Moerai,86,PF,1564372800,78,-22.43,-151.33,69.53,26.37
592,Imeni Poliny Osipenko,59,RU,1564372800,66,52.42,136.49,74.57,5.19
593,Goderich,59,CA,1564372800,88,43.74,-81.71,73.99,4
594,Brownwood,1,US,1564372800,48,31.71,-98.99,86,6.93
595,Baykit,100,RU,1564372800,73,61.68,96.39,57.83,4.23
597,Itapora,65,BR,1564372801,60,-22.08,-54.79,64.31,6.44
598,Wilmington Island,20,US,1564372801,69,32,-80.97,81,4.61
599,Mao,40,DO,1564372801,94,19.55,-71.08,77,4.7
601,Fergus Falls,1,US,1564372801,100,46.28,-96.08,64.4,4.7
602,Boa Vista,0,BR,1564372803,88,2.82,-60.67,77,2.24
603,Seydisehir,0,TR,1564372805,45,37.42,31.85,59.63,2.57
604,Lommel,1,BE,1564372805,100,51.23,5.31,60.01,4.7
605,Isangel,20,VU,1564372806,57,-19.55,169.27,77,9.17
606,Lompoc,1,US,1564372806,72,34.64,-120.46,62.6,5.82
609,Biloela,0,AU,1564372816,38,-24.4,150.51,71.87,5.1
610,Kidal,0,ML,1564372816,49,18.44,1.41,86.27,14.23
611,Mason City,1,US,1564372817,88,43.15,-93.2,71.6,9.17
612,Sangar,84,RU,1564372817,46,63.92,127.47,71.51,13.31
613,Bokhan,100,RU,1564372817,86,53.15,103.77,59.63,19.75
614,Chapada dos Guimaraes,0,BR,1564372817,60,-15.46,-55.75,71.6,3.36
615,Sumbawanga,5,TZ,1564372817,76,-7.95,31.62,50,3.36
